{"features":[{"type":"Feature","geometry":{"type":"Point","coordinates":[135.691906,34.5946239991]},"properties":{"レベル":1,"住所":"奈良県生駒郡三郷町立野北1-36-39","収容人数":-1,"名称":"ふれあい交流センター","対象とする災害の分類":"指定なし","施設の種類":"指定避難所","施設規模":-1,"行政区域":"29343","高さ":null}},{"type":"Feature","geometry":{"type":"Point","coordinates":[135.694199681,34.5940151939]},"properties":{"レベル":3,"住所":"奈良県生駒郡三郷町立野北1-29-116","収容人数":-1,"名称":"みさと自治会館","対象とする災害の分類":"指定なし","施設の種類":"補助避難所","施設規模":-1,"行政区域":"29343","高さ":10.6}},{"type":"Feature","geometry":{"type":"Point","coordinates":[135.69416113,34.59455749]},"properties":{"レベル":1,"住所":"奈良県生駒郡三郷町立野北1-29-117","収容人数":-1,"名称":"みさと第２児童遊園地","対象とする災害の分類":"指定なし","施設の種類":"一時避難所","施設規模":-1,"行政区域":"29343","高さ":null}},{"type":"Feature","geometry":{"type":"Point","coordinates":[135.690090579,34.5935582696]},"properties":{"レベル":3,"住所":"奈良県生駒郡三郷町立野南1-9-25","収容人数":-1,"名称":"みさと第二集会所第３分団屯所","対象とする災害の分類":"指定なし","施設の種類":"補助避難所","施設規模":-1,"行政区域":"29343","高さ":null}},{"type":"Feature","geometry":{"type":"Point","coordinates":[135.69214646,34.59538027]},"properties":{"レベル":1,"住所":"奈良県生駒郡三郷町立野北1-26-12","収容人数":-1,"名称":"みさと緑地公園","対象とする災害の分類":"指定なし","施設の種類":"一時避難所","施設規模":-1,"行政区域":"29343","高さ":null}},{"type":"Feature","geometry":{"type":"Point","coordinates":[135.684368,34.587539]},"properties":{"レベル":3,"住所":"奈良県生駒郡三郷町立野南3-4-20","収容人数":-1,"名称":"高山自治会館","対象とする災害の分類":"指定なし","施設の種類":"補助避難所","施設規模":-1,"行政区域":"29343","高さ":11.4}},{"type":"Feature","geometry":{"type":"Point","coordinates":[135.681432385,34.5935539087]},"properties":{"レベル":3,"住所":"奈良県生駒郡三郷町立野北3-11-44","収容人数":-1,"名称":"今井自治会館","対象とする災害の分類":"指定なし","施設の種類":"補助避難所","施設規模":-1,"行政区域":"29343","高さ":6.4}},{"type":"Feature","geometry":{"type":"Point","coordinates":[135.68413768,34.5942481791]},"properties":{"レベル":1,"住所":"奈良県生駒郡三郷町立野北2-31-2","収容人数":-1,"名称":"三郷健民運動場","対象とする災害の分類":"指定なし","施設の種類":"一時避難所","施設規模":-1,"行政区域":"29343","高さ":null}},{"type":"Feature","geometry":{"type":"Point","coordinates":[135.692952,34.600321]},"properties":{"レベル":1,"住所":"奈良県生駒郡三郷町勢野西1-6-1","収容人数":-1,"名称":"三郷小学校体育館","対象とする災害の分類":"指定なし","施設の種類":"一時避難所、指定避難所","施設規模":-1,"行政区域":"29343","高さ":null}},{"type":"Feature","geometry":{"type":"Point","coordinates":[135.697298233,34.6022362123]},"properties":{"レベル":4,"住所":"奈良県生駒郡三郷町勢野西1-2-3","収容人数":-1,"名称":"三郷中央公園","対象とする災害の分類":"指定なし","施設の種類":"一時避難所","施設規模":-1,"行政区域":"29343","高さ":null}},{"type":"Feature","geometry":{"type":"Point","coordinates":[135.69323,34.598015]},"properties":{"レベル":1,"住所":"奈良県生駒郡三郷町立野北1-3-1","収容人数":-1,"名称":"三郷中学校体育館","対象とする災害の分類":"指定なし","施設の種類":"一時避難所、指定避難所","施設規模":-1,"行政区域":"29343","高さ":15.4}},{"type":"Feature","geometry":{"type":"Point","coordinates":[135.697103,34.6014409991]},"properties":{"レベル":1,"住所":"奈良県生駒郡三郷町勢野西1-2-3","収容人数":-1,"名称":"三郷町スポーツセンター","対象とする災害の分類":"指定なし","施設の種類":"指定避難所","施設規模":-1,"行政区域":"29343","高さ":21}},{"type":"Feature","geometry":{"type":"Point","coordinates":[135.697423,34.611514]},"properties":{"レベル":1,"住所":"奈良県生駒郡三郷町美松ヶ丘西2-11-1","収容人数":-1,"名称":"三郷北小学校体育館","対象とする災害の分類":"指定なし","施設の種類":"一時避難所、指定避難所","施設規模":-1,"行政区域":"29343","高さ":23}},{"type":"Feature","geometry":{"type":"Point","coordinates":[135.70702436,34.6045751]},"properties":{"レベル":1,"住所":"奈良県生駒郡三郷町三室1-2-18","収容人数":-1,"名称":"三室児童遊園地","対象とする災害の分類":"指定なし","施設の種類":"一時避難所","施設規模":-1,"行政区域":"29343","高さ":null}},{"type":"Feature","geometry":{"type":"Point","coordinates":[135.70684942,34.6044241008]},"properties":{"レベル":3,"住所":"奈良県生駒郡三郷町三室1-2-18","収容人数":-1,"名称":"三室自治会館","対象とする災害の分類":"指定なし","施設の種類":"補助避難所","施設規模":-1,"行政区域":"29343","高さ":6.8}},{"type":"Feature","geometry":{"type":"Point","coordinates":[135.70712273,34.6071270942]},"properties":{"レベル":3,"住所":"奈良県生駒郡三郷町夕陽ヶ丘4-8","収容人数":-1,"名称":"住民広場（夕陽ヶ丘）","対象とする災害の分類":"指定なし","施設の種類":"一時避難所","施設規模":-1,"行政区域":"29343","高さ":null}},{"type":"Feature","geometry":{"type":"Point","coordinates":[135.688932275,34.5997983172]},"properties":{"レベル":3,"住所":"奈良県生駒郡三郷町城山台2-1-1","収容人数":-1,"名称":"城山台自治会館","対象とする災害の分類":"指定なし","施設の種類":"補助避難所","施設規模":-1,"行政区域":"29343","高さ":10.5}},{"type":"Feature","geometry":{"type":"Point","coordinates":[135.6850147,34.60145433]},"properties":{"レベル":1,"住所":"奈良県生駒郡三郷町城山台5-10-7","収容人数":-1,"名称":"城山台第３児童公園","対象とする災害の分類":"指定なし","施設の種類":"一時避難所","施設規模":-1,"行政区域":"29343","高さ":null}},{"type":"Feature","geometry":{"type":"Point","coordinates":[135.68857125,34.59992421]},"properties":{"レベル":1,"住所":"奈良県生駒郡三郷町城山台2-1-2","収容人数":-1,"名称":"城山台第７児童公園","対象とする災害の分類":"指定なし","施設の種類":"一時避難所","施設規模":-1,"行政区域":"29343","高さ":null}},{"type":"Feature","geometry":{"type":"Point","coordinates":[135.68919152,34.60334784]},"properties":{"レベル":1,"住所":"奈良県生駒郡三郷町信貴ヶ丘4-1-3","収容人数":-1,"名称":"信貴ヶ丘児童公園","対象とする災害の分類":"指定なし","施設の種類":"一時避難所","施設規模":-1,"行政区域":"29343","高さ":null}},{"type":"Feature","geometry":{"type":"Point","coordinates":[135.689247319,34.6035853892]},"properties":{"レベル":3,"住所":"奈良県生駒郡三郷町信貴ケ丘4-1-3","収容人数":-1,"名称":"信貴ケ丘自治会館","対象とする災害の分類":"指定なし","施設の種類":"補助避難所","施設規模":-1,"行政区域":"29343","高さ":10.7}},{"type":"Feature","geometry":{"type":"Point","coordinates":[135.677814446,34.6065596574]},"properties":{"レベル":3,"住所":"奈良県生駒郡三郷町信貴山東3-55","収容人数":-1,"名称":"信貴山バス停広場","対象とする災害の分類":"指定なし","施設の種類":"一時避難所","施設規模":-1,"行政区域":"29343","高さ":null}},{"type":"Feature","geometry":{"type":"Point","coordinates":[135.677249391,34.6066277822]},"properties":{"レベル":3,"住所":"奈良県生駒郡三郷町信貴山東3-56","収容人数":-1,"名称":"信貴山東町自治会館","対象とする災害の分類":"指定なし","施設の種類":"補助避難所","施設規模":-1,"行政区域":"29343","高さ":10.4}},{"type":"Feature","geometry":{"type":"Point","coordinates":[135.69073593,34.61060826]},"properties":{"レベル":1,"住所":"奈良県生駒郡三郷町勢野北5-13-1","収容人数":-1,"名称":"勢野グラウンド","対象とする災害の分類":"指定なし","施設の種類":"一時避難所","施設規模":-1,"行政区域":"29343","高さ":null}},{"type":"Feature","geometry":{"type":"Point","coordinates":[135.697926058,34.6056739844]},"properties":{"レベル":3,"住所":"奈良県生駒郡三郷町勢野東2-12-22","収容人数":-1,"名称":"勢野自治連合会館","対象とする災害の分類":"指定なし","施設の種類":"補助避難所","施設規模":-1,"行政区域":"29343","高さ":6.7}},{"type":"Feature","geometry":{"type":"Point","coordinates":[135.70285238,34.60463162]},"properties":{"レベル":1,"住所":"奈良県生駒郡三郷町勢野東4-7-8","収容人数":-1,"名称":"勢野東４丁目公園","対象とする災害の分類":"指定なし","施設の種類":"一時避難所","施設規模":-1,"行政区域":"29343","高さ":null}},{"type":"Feature","geometry":{"type":"Point","coordinates":[135.689202,34.594432]},"properties":{"レベル":1,"住所":"奈良県生駒郡三郷町立野北1-45-5","収容人数":-1,"名称":"西部保育園","対象とする災害の分類":"指定なし","施設の種類":"補助避難所","施設規模":-1,"行政区域":"29343","高さ":10.4}},{"type":"Feature","geometry":{"type":"Point","coordinates":[135.686758,34.604265]},"properties":{"レベル":1,"住所":"奈良県生駒郡三郷町信貴ヶ丘4-7-1","収容人数":-1,"名称":"西和清陵高校グラウンド","対象とする災害の分類":"指定なし","施設の種類":"一時避難所","施設規模":-1,"行政区域":"29343","高さ":null}},{"type":"Feature","geometry":{"type":"Point","coordinates":[135.704373178,34.6086574395]},"properties":{"レベル":3,"住所":"奈良県生駒郡三郷町東信貴ヶ丘2-2-21","収容人数":-1,"名称":"東信貴ヶ丘自治会館","対象とする災害の分類":"指定なし","施設の種類":"補助避難所","施設規模":-1,"行政区域":"29343","高さ":7.4}},{"type":"Feature","geometry":{"type":"Point","coordinates":[135.70691842,34.6065704296]},"properties":{"レベル":3,"住所":"奈良県生駒郡三郷町夕陽ケ丘1-1","収容人数":-1,"名称":"東部自治会館","対象とする災害の分類":"指定なし","施設の種類":"補助避難所","施設規模":-1,"行政区域":"29343","高さ":null}},{"type":"Feature","geometry":{"type":"Point","coordinates":[135.664195261,34.6064095951]},"properties":{"レベル":3,"住所":"奈良県生駒郡三郷町信貴南畑1-5-2","収容人数":-1,"名称":"南畑集落センター","対象とする災害の分類":"指定なし","施設の種類":"補助避難所","施設規模":-1,"行政区域":"29343","高さ":null}},{"type":"Feature","geometry":{"type":"Point","coordinates":[135.668432567,34.6057485494]},"properties":{"レベル":4,"住所":"奈良県生駒郡三郷町信貴南畑1-2-58","収容人数":-1,"名称":"南畑幼稚園","対象とする災害の分類":"指定なし","施設の種類":"指定避難所、一時避難所","施設規模":-1,"行政区域":"29343","高さ":null}},{"type":"Feature","geometry":{"type":"Point","coordinates":[135.68789831,34.595821]},"properties":{"レベル":1,"住所":"奈良県生駒郡三郷町立野北2-16-1","収容人数":-1,"名称":"農住１号公園","対象とする災害の分類":"指定なし","施設の種類":"一時避難所","施設規模":-1,"行政区域":"29343","高さ":null}},{"type":"Feature","geometry":{"type":"Point","coordinates":[135.68218786,34.59230971]},"properties":{"レベル":1,"住所":"奈良県生駒郡三郷町立野南2-21-20","収容人数":-1,"名称":"農住２号公園","対象とする災害の分類":"指定なし","施設の種類":"一時避難所","施設規模":-1,"行政区域":"29343","高さ":null}},{"type":"Feature","geometry":{"type":"Point","coordinates":[135.68648969,34.58981494]},"properties":{"レベル":1,"住所":"奈良県生駒郡三郷町立野南2-8-22","収容人数":-1,"名称":"農住３号公園","対象とする災害の分類":"指定なし","施設の種類":"一時避難所","施設規模":-1,"行政区域":"29343","高さ":null}},{"type":"Feature","geometry":{"type":"Point","coordinates":[135.68173109,34.5861862]},"properties":{"レベル":1,"住所":"奈良県生駒郡三郷町立野南3-11-51","収容人数":-1,"名称":"農住４号公園","対象とする災害の分類":"指定なし","施設の種類":"一時避難所","施設規模":-1,"行政区域":"29343","高さ":null}},{"type":"Feature","geometry":{"type":"Point","coordinates":[135.685579898,34.5905642404]},"properties":{"レベル":3,"住所":"奈良県生駒郡三郷町立野南2-6-22","収容人数":-1,"名称":"農住記念会館","対象とする災害の分類":"指定なし","施設の種類":"補助避難所","施設規模":-1,"行政区域":"29343","高さ":null}},{"type":"Feature","geometry":{"type":"Point","coordinates":[135.689112986,34.5930744161]},"properties":{"レベル":3,"住所":"奈良県生駒郡三郷町立野南1-10-18","収容人数":-1,"名称":"馬場自治会館","対象とする災害の分類":"指定なし","施設の種類":"補助避難所","施設規模":-1,"行政区域":"29343","高さ":6.1}},{"type":"Feature","geometry":{"type":"Point","coordinates":[135.700629,34.6094362052]},"properties":{"レベル":3,"住所":"奈良県生駒郡三郷町美松ケ丘西1-9-1","収容人数":-1,"名称":"美松ケ丘自治会館","対象とする災害の分類":"指定なし","施設の種類":"補助避難所","施設規模":-1,"行政区域":"29343","高さ":8.7}},{"type":"Feature","geometry":{"type":"Point","coordinates":[135.70059385,34.60986961]},"properties":{"レベル":1,"住所":"奈良県生駒郡三郷町美松ヶ丘西1-9-21","収容人数":-1,"名称":"美松ヶ丘第１児童公園","対象とする災害の分類":"指定なし","施設の種類":"一時避難所","施設規模":-1,"行政区域":"29343","高さ":null}},{"type":"Feature","geometry":{"type":"Point","coordinates":[135.696035,34.6008329991]},"properties":{"レベル":1,"住所":"奈良県生駒郡三郷町勢野西1-2-1","収容人数":-1,"名称":"福祉保健センター","対象とする災害の分類":"指定なし","施設の種類":"補助避難所","施設規模":-1,"行政区域":"29343","高さ":6.8}},{"type":"Feature","geometry":{"type":"Point","coordinates":[135.70249758,34.6018848539]},"properties":{"レベル":3,"住所":"奈良県生駒郡三郷町勢野東5-1-16","収容人数":-1,"名称":"明治・明治橋自治会館","対象とする災害の分類":"指定なし","施設の種類":"補助避難所","施設規模":-1,"行政区域":"29343","高さ":null}},{"type":"Feature","geometry":{"type":"Point","coordinates":[135.690339829,34.6068910024]},"properties":{"レベル":3,"住所":"奈良県生駒郡三郷町勢野西5-4-2","収容人数":-1,"名称":"里ケ丘・緑ケ丘自治会館","対象とする災害の分類":"指定なし","施設の種類":"補助避難所","施設規模":-1,"行政区域":"29343","高さ":null}},{"type":"Feature","geometry":{"type":"Point","coordinates":[135.69013397,34.60685553]},"properties":{"レベル":1,"住所":"奈良県生駒郡三郷町勢野西5-4-1","収容人数":-1,"名称":"里ヶ丘・緑ヶ丘第１児童公園","対象とする災害の分類":"指定なし","施設の種類":"一時避難所","施設規模":-1,"行政区域":"29343","高さ":null}},{"type":"Feature","geometry":{"type":"Point","coordinates":[135.688153,34.5946946741]},"properties":{"レベル":3,"住所":"奈良県生駒郡三郷町立野北2-19-7","収容人数":-1,"名称":"立野自治連合会館","対象とする災害の分類":"指定なし","施設の種類":"指定避難所","施設規模":-1,"行政区域":"29343","高さ":5.5}},{"type":"Feature","geometry":{"type":"Point","coordinates":[135.683984478,34.5951719891]},"properties":{"レベル":3,"住所":"奈良県生駒郡三郷町立野北2-31-62","収容人数":-1,"名称":"立野北２丁目自治会館","対象とする災害の分類":"指定なし","施設の種類":"補助避難所","施設規模":-1,"行政区域":"29343","高さ":6.1}}],"name":"29343_sango-cho_city_2025_shelter","type":"FeatureCollection"}